date,city,state,lat,lon,temp_max_f,temp_min_f,temp_avg_f,day_of_week,is_weekend,temp_range,eia_region,energy_consumption_mwh,temp_change_f,energy_change_mwh,energy_change_pct
2026-07-12,Chicago,Illinois,41.8781,-87.6298,47.7,44.1,45.900000000000006,Sunday,True,<50°F,PJM,2555397.0,,,
2026-07-12,Houston,Texas,29.7604,-95.3698,49.1,46.0,47.55,Sunday,True,<50°F,ERCO,1570310.0,,,
2026-07-12,New York,New York,40.7128,-74.006,47.1,44.4,45.75,Sunday,True,<50°F,NYIS,430204.0,,,
2026-07-12,Phoenix,Arizona,33.4484,-112.074,51.6,48.0,49.8,Sunday,True,<50°F,AZPS,160507.0,,,
2026-07-12,Seattle,Washington,47.6062,-122.3321,45.0,41.9,43.45,Sunday,True,<50°F,SCL,21747.0,,,
